[
  {"id":"poi-hangzhou-westlake","regionId":"area-hangzhou-westlake","type":"landmark","name":"西湖苏堤","summary":"杭州最经典的湖景步行线，适合清晨或傍晚慢游。","lat":30.2444,"lng":120.1436,"tags":["城市漫步","地标","轻松"],"durationMinutes":120,"costLevel":0,"hotScore":99},
  {"id":"poi-hangzhou-lingyin","regionId":"area-hangzhou-westlake","type":"scenic","name":"灵隐寺","summary":"杭州代表性寺院和山林景点，适合半日安排。","lat":30.2401,"lng":120.1023,"tags":["历史文化","自然","避暑"],"durationMinutes":150,"costLevel":2,"hotScore":95},
  {"id":"poi-hangzhou-broken-bridge","regionId":"area-hangzhou-westlake","type":"landmark","name":"断桥残雪","summary":"西湖入门级地标，适合清晨避开旅行团人流。","lat":30.2586,"lng":120.1499,"tags":["地标","城市漫步","打卡"],"durationMinutes":45,"costLevel":0,"hotScore":93},
  {"id":"poi-hangzhou-leifeng-pagoda","regionId":"area-hangzhou-westlake","type":"viewpoint","name":"雷峰塔","summary":"适合看西湖南线和落日，门票点位建议放在下午后段。","lat":30.2335,"lng":120.1488,"tags":["地标","夜景","亲子"],"durationMinutes":90,"costLevel":2,"hotScore":90},
  {"id":"poi-hangzhou-quyuan","regionId":"area-hangzhou-westlake","type":"scenic","name":"曲院风荷","summary":"夏季荷花和湖边步道体验好，可与苏堤北段顺路。","lat":30.2524,"lng":120.1339,"tags":["自然","轻松","湖景"],"durationMinutes":75,"costLevel":0,"hotScore":87},
  {"id":"poi-hangzhou-feilai-peak","regionId":"area-hangzhou-lingyin-longjing","type":"scenic","name":"飞来峰","summary":"与灵隐寺相邻的石刻和山林景区，适合一并安排。","lat":30.2397,"lng":120.0984,"tags":["历史文化","自然","避暑"],"durationMinutes":90,"costLevel":2,"hotScore":89},
  {"id":"poi-hangzhou-longjing-village","regionId":"area-hangzhou-lingyin-longjing","type":"tea","name":"龙井村","summary":"茶田、茶歇和山路慢游片区，晴天体验明显更好。","lat":30.2186,"lng":120.0927,"tags":["茶文化","轻松","自然"],"durationMinutes":120,"costLevel":1,"hotScore":88},
  {"id":"poi-hangzhou-jiuxi","regionId":"area-hangzhou-lingyin-longjing","type":"scenic","name":"九溪烟树","summary":"溪流和林荫步道适合半日慢行，雨后路面注意防滑。","lat":30.2035,"lng":120.1079,"tags":["自然","城市漫步","避暑"],"durationMinutes":120,"costLevel":0,"hotScore":86},
  {"id":"poi-hangzhou-hubin","regionId":"area-hangzhou-hubin-wulin","type":"night-view","name":"湖滨夜景","summary":"西湖夜间和商圈衔接最方便的区域，适合第一晚收尾。","lat":30.2558,"lng":120.1655,"tags":["夜景","美食","地铁"],"durationMinutes":90,"costLevel":0,"hotScore":91},
  {"id":"poi-hangzhou-wulin-night-market","regionId":"area-hangzhou-hubin-wulin","type":"food","name":"武林夜市","summary":"夜间小吃和轻购物集中，适合晚饭后短暂停留。","lat":30.2727,"lng":120.1635,"tags":["美食","夜景","轻松"],"durationMinutes":75,"costLevel":1,"hotScore":84},
  {"id":"poi-hangzhou-zhejiang-museum-gushan","regionId":"area-hangzhou-westlake","type":"museum","name":"浙江省博物馆孤山馆区","summary":"雨天和炎热天气的西湖线替代点，适合补充历史文化。","lat":30.2522,"lng":120.1451,"tags":["历史文化","雨天备选","亲子"],"durationMinutes":90,"costLevel":0,"hotScore":82},
  {"id":"poi-hangzhou-hefang-street","regionId":"area-hangzhou-shangcheng","type":"street","name":"河坊街","summary":"老街、小吃和伴手礼集中，适合和南宋御街组合。","lat":30.2416,"lng":120.1772,"tags":["城市漫步","美食","打卡"],"durationMinutes":90,"costLevel":1,"hotScore":83},
  {"id":"poi-hangzhou-southern-song-street","regionId":"area-hangzhou-shangcheng","type":"street","name":"南宋御街","summary":"上城老街主轴，适合晚间散步和轻餐。","lat":30.2479,"lng":120.1754,"tags":["历史文化","城市漫步","美食"],"durationMinutes":80,"costLevel":0,"hotScore":82},
  {"id":"poi-hangzhou-xiaohezhi-street","regionId":"area-hangzhou-grand-canal","type":"street","name":"小河直街历史文化街区","summary":"运河边老街，适合咖啡、散步和低强度拍照。","lat":30.3138,"lng":120.1398,"tags":["城市漫步","轻松","历史文化"],"durationMinutes":90,"costLevel":0,"hotScore":81},
  {"id":"poi-hangzhou-gongchen-bridge","regionId":"area-hangzhou-grand-canal","type":"landmark","name":"拱宸桥","summary":"京杭大运河杭州段代表地标，适合傍晚看运河水岸。","lat":30.3192,"lng":120.1378,"tags":["地标","城市漫步","夜景"],"durationMinutes":60,"costLevel":0,"hotScore":80},
  {"id":"poi-hangzhou-xixi-wetland","regionId":"area-hangzhou-xixi","type":"scenic","name":"西溪湿地","summary":"自然湿地和船行体验，适合留出半天，不建议和西湖硬塞同天。","lat":30.2668,"lng":120.0647,"tags":["自然","亲子","慢游"],"durationMinutes":180,"costLevel":2,"hotScore":85},
  {"id":"poi-beijing-palace-museum","regionId":"area-beijing-dongcheng","type":"landmark","name":"故宫博物院","summary":"北京历史文化核心点位，适合半日深度参观。","lat":39.9163,"lng":116.3972,"tags":["历史文化","地标"],"durationMinutes":180,"costLevel":2,"hotScore":100},
  {"id":"poi-beijing-jingshan","regionId":"area-beijing-dongcheng","type":"viewpoint","name":"景山公园","summary":"俯瞰中轴线和故宫的经典机位，适合接在故宫后。","lat":39.9251,"lng":116.3968,"tags":["打卡","城市漫步","地标"],"durationMinutes":60,"costLevel":1,"hotScore":92},
  {"id":"poi-shanghai-bund","regionId":"area-shanghai-huangpu","type":"landmark","name":"外滩","summary":"上海经典天际线观景带，傍晚到夜景时段体验最好。","lat":31.2400,"lng":121.4900,"tags":["地标","夜景","城市漫步"],"durationMinutes":90,"costLevel":0,"hotScore":99},
  {"id":"poi-shanghai-yuyuan","regionId":"area-shanghai-huangpu","type":"scenic","name":"豫园","summary":"老城厢代表景点，适合与城隍庙和外滩串联。","lat":31.2272,"lng":121.4920,"tags":["历史文化","打卡"],"durationMinutes":90,"costLevel":2,"hotScore":88},
  {"id":"poi-chengdu-kuanzhai","regionId":"area-chengdu-qingyang","type":"street","name":"宽窄巷子","summary":"成都老城街区和休闲消费集中地，适合慢逛。","lat":30.6696,"lng":104.0590,"tags":["城市漫步","美食","打卡"],"durationMinutes":90,"costLevel":1,"hotScore":90},
  {"id":"poi-chengdu-wuhou","regionId":"area-chengdu-qingyang","type":"scenic","name":"武侯祠","summary":"三国文化代表景点，可与锦里组合安排。","lat":30.6467,"lng":104.0472,"tags":["历史文化","亲子"],"durationMinutes":120,"costLevel":2,"hotScore":88},
  {"id":"poi-xian-city-wall","regionId":"area-xian-beilin","type":"landmark","name":"西安城墙","summary":"古城标志性体验，适合傍晚骑行或步行。","lat":34.2569,"lng":108.9460,"tags":["历史文化","城市漫步","地标"],"durationMinutes":120,"costLevel":2,"hotScore":96},
  {"id":"poi-xian-bell-tower","regionId":"area-xian-beilin","type":"landmark","name":"钟楼","summary":"西安城中心地标，适合夜景和小吃路线衔接。","lat":34.2610,"lng":108.9423,"tags":["夜景","地标","美食"],"durationMinutes":60,"costLevel":1,"hotScore":90},
  {"id":"poi-guangzhou-yuexiu-park","regionId":"area-guangzhou-yuexiu","type":"park","name":"越秀公园","summary":"广州老城代表公园，适合轻松散步和看五羊雕像。","lat":23.1445,"lng":113.2655,"tags":["轻松","城市漫步","亲子"],"durationMinutes":90,"costLevel":0,"hotScore":86},
  {"id":"poi-guangzhou-shamian","regionId":"area-guangzhou-yuexiu","type":"street","name":"沙面","summary":"欧陆建筑街区，适合拍照、咖啡和老城漫步。","lat":23.1095,"lng":113.2396,"tags":["打卡","城市漫步"],"durationMinutes":90,"costLevel":0,"hotScore":89},
  {"id":"poi-shenzhen-talent-park","regionId":"area-shenzhen-nanshan","type":"park","name":"人才公园","summary":"南山滨海夜景和城市天际线观景点，适合傍晚散步。","lat":22.5145,"lng":113.9452,"tags":["夜景","城市漫步","轻松"],"durationMinutes":90,"costLevel":0,"hotScore":90},
  {"id":"poi-shenzhen-nantou","regionId":"area-shenzhen-nanshan","type":"street","name":"南头古城","summary":"深圳城市更新和历史街区结合的代表点位。","lat":22.5400,"lng":113.9230,"tags":["历史文化","打卡","美食"],"durationMinutes":100,"costLevel":0,"hotScore":86},
  {"id":"poi-xiamen-gulangyu","regionId":"area-xiamen-siming","type":"scenic","name":"鼓浪屿","summary":"厦门经典海岛步行景区，需要提前关注船票。","lat":24.4475,"lng":118.0679,"tags":["海滨","历史文化","打卡"],"durationMinutes":240,"costLevel":2,"hotScore":98},
  {"id":"poi-xiamen-shapowei","regionId":"area-xiamen-siming","type":"street","name":"沙坡尾","summary":"老港口与年轻商业结合的街区，适合傍晚拍照和小吃。","lat":24.4389,"lng":118.0917,"tags":["城市漫步","美食","打卡"],"durationMinutes":90,"costLevel":1,"hotScore":88}
]
