[
  {"id":"poi-hangzhou-westlake","regionId":"area-hangzhou-westlake","type":"landmark","name":"西湖苏堤","summary":"杭州最经典的湖景步行线，适合清晨或傍晚慢游。","lat":30.2444,"lng":120.1436,"tags":["城市漫步","地标","轻松"],"durationMinutes":120,"costLevel":0,"hotScore":99},
  {"id":"poi-hangzhou-lingyin","regionId":"area-hangzhou-westlake","type":"scenic","name":"灵隐寺","summary":"杭州代表性寺院和山林景点，适合半日安排。","lat":30.2401,"lng":120.1023,"tags":["历史文化","自然","避暑"],"durationMinutes":150,"costLevel":2,"hotScore":95},
  {"id":"poi-beijing-palace-museum","regionId":"area-beijing-dongcheng","type":"landmark","name":"故宫博物院","summary":"北京历史文化核心点位，适合半日深度参观。","lat":39.9163,"lng":116.3972,"tags":["历史文化","地标"],"durationMinutes":180,"costLevel":2,"hotScore":100},
  {"id":"poi-beijing-jingshan","regionId":"area-beijing-dongcheng","type":"viewpoint","name":"景山公园","summary":"俯瞰中轴线和故宫的经典机位，适合接在故宫后。","lat":39.9251,"lng":116.3968,"tags":["打卡","城市漫步","地标"],"durationMinutes":60,"costLevel":1,"hotScore":92},
  {"id":"poi-shanghai-bund","regionId":"area-shanghai-huangpu","type":"landmark","name":"外滩","summary":"上海经典天际线观景带，傍晚到夜景时段体验最好。","lat":31.2400,"lng":121.4900,"tags":["地标","夜景","城市漫步"],"durationMinutes":90,"costLevel":0,"hotScore":99},
  {"id":"poi-shanghai-yuyuan","regionId":"area-shanghai-huangpu","type":"scenic","name":"豫园","summary":"老城厢代表景点，适合与城隍庙和外滩串联。","lat":31.2272,"lng":121.4920,"tags":["历史文化","打卡"],"durationMinutes":90,"costLevel":2,"hotScore":88},
  {"id":"poi-chengdu-kuanzhai","regionId":"area-chengdu-qingyang","type":"street","name":"宽窄巷子","summary":"成都老城街区和休闲消费集中地，适合慢逛。","lat":30.6696,"lng":104.0590,"tags":["城市漫步","美食","打卡"],"durationMinutes":90,"costLevel":1,"hotScore":90},
  {"id":"poi-chengdu-wuhou","regionId":"area-chengdu-qingyang","type":"scenic","name":"武侯祠","summary":"三国文化代表景点，可与锦里组合安排。","lat":30.6467,"lng":104.0472,"tags":["历史文化","亲子"],"durationMinutes":120,"costLevel":2,"hotScore":88},
  {"id":"poi-xian-city-wall","regionId":"area-xian-beilin","type":"landmark","name":"西安城墙","summary":"古城标志性体验，适合傍晚骑行或步行。","lat":34.2569,"lng":108.9460,"tags":["历史文化","城市漫步","地标"],"durationMinutes":120,"costLevel":2,"hotScore":96},
  {"id":"poi-xian-bell-tower","regionId":"area-xian-beilin","type":"landmark","name":"钟楼","summary":"西安城中心地标，适合夜景和小吃路线衔接。","lat":34.2610,"lng":108.9423,"tags":["夜景","地标","美食"],"durationMinutes":60,"costLevel":1,"hotScore":90},
  {"id":"poi-guangzhou-yuexiu-park","regionId":"area-guangzhou-yuexiu","type":"park","name":"越秀公园","summary":"广州老城代表公园，适合轻松散步和看五羊雕像。","lat":23.1445,"lng":113.2655,"tags":["轻松","城市漫步","亲子"],"durationMinutes":90,"costLevel":0,"hotScore":86},
  {"id":"poi-guangzhou-shamian","regionId":"area-guangzhou-yuexiu","type":"street","name":"沙面","summary":"欧陆建筑街区，适合拍照、咖啡和老城漫步。","lat":23.1095,"lng":113.2396,"tags":["打卡","城市漫步"],"durationMinutes":90,"costLevel":0,"hotScore":89},
  {"id":"poi-shenzhen-talent-park","regionId":"area-shenzhen-nanshan","type":"park","name":"人才公园","summary":"南山滨海夜景和城市天际线观景点，适合傍晚散步。","lat":22.5145,"lng":113.9452,"tags":["夜景","城市漫步","轻松"],"durationMinutes":90,"costLevel":0,"hotScore":90},
  {"id":"poi-shenzhen-nantou","regionId":"area-shenzhen-nanshan","type":"street","name":"南头古城","summary":"深圳城市更新和历史街区结合的代表点位。","lat":22.5400,"lng":113.9230,"tags":["历史文化","打卡","美食"],"durationMinutes":100,"costLevel":0,"hotScore":86},
  {"id":"poi-xiamen-gulangyu","regionId":"area-xiamen-siming","type":"scenic","name":"鼓浪屿","summary":"厦门经典海岛步行景区，需要提前关注船票。","lat":24.4475,"lng":118.0679,"tags":["海滨","历史文化","打卡"],"durationMinutes":240,"costLevel":2,"hotScore":98},
  {"id":"poi-xiamen-shapowei","regionId":"area-xiamen-siming","type":"street","name":"沙坡尾","summary":"老港口与年轻商业结合的街区，适合傍晚拍照和小吃。","lat":24.4389,"lng":118.0917,"tags":["城市漫步","美食","打卡"],"durationMinutes":90,"costLevel":1,"hotScore":88}
]
